{"type":"FeatureCollection","features":[{"geometry":{"coordinates":[-121.6592528,38.1161139],"geodesic":true,"type":"Point"},"id":"12","properties":{"APR":39.0,"AUG":48.0,"Crop":"pasture","DEC":7.0,"Deployed":1466121600000,"ElevationM":-1.52,"Equipment":"no but CIMIS does have another pasture station on Twitchell","FEB":17.0,"IslandName":"Twitchell","JAN":6.0,"JUL":51.0,"JUN":52.0,"Latitude":"38° 6'58.01\"N","Long_dd":-121.6592528,"Longitude":"121°39'33.31\"W","MAR":29.0,"MAY":42.0,"NOV":11.0,"OCT":25.0,"Removed":1480636800000,"SEP":37.0,"Station_ID":"D12","Type":"full"},"type":"Feature"},{"geometry":{"coordinates":[-121.6468833,38.1146528],"geodesic":true,"type":"Point"},"id":"5","properties":{"APR":40.0,"AUG":54.0,"Crop":"alfalfa","DEC":6.0,"Deployed":1470787200000,"ElevationM":-3.35,"Equipment":"UC Berkeley EC system","FEB":19.0,"IslandName":"Twitchell","JAN":4.0,"JUL":57.0,"JUN":67.0,"Latitude":"38°6'52.75\"N","Long_dd":-121.6468833,"Longitude":"121°38'48.78\"W","MAR":33.0,"MAY":50.0,"NOV":10.0,"OCT":29.0,"Removed":null,"SEP":41.0,"Station_ID":"D14","Type":"lite"},"type":"Feature"},{"geometry":{"coordinates":[-121.7012806,38.0333722],"geodesic":true,"type":"Point"},"id":"14","properties":{"APR":40.0,"AUG":47.0,"Crop":"pasture","DEC":6.0,"Deployed":1465257600000,"ElevationM":-3.66,"Equipment":"CIMIS","FEB":12.0,"IslandName":"Jersey","JAN":7.0,"JUL":51.0,"JUN":51.0,"Latitude":"38° 2'0.14\"N","Long_dd":-121.7012806,"Longitude":"121°42'4.61\"W","MAR":26.0,"MAY":43.0,"NOV":11.0,"OCT":27.0,"Removed":null,"SEP":37.0,"Station_ID":"D04","Type":"lite"},"type":"Feature"},{"geometry":{"coordinates":[-121.5857611,37.9862389],"geodesic":true,"type":"Point"},"id":"10","properties":{"APR":25.0,"AUG":36.0,"Crop":"maize","DEC":6.0,"Deployed":1468368000000,"ElevationM":-3.66,"Equipment":"no","FEB":12.0,"IslandName":"Holland","JAN":3.0,"JUL":76.0,"JUN":77.0,"Latitude":"37°59'10.46\"N","Long_dd":-121.5857611,"Longitude":"121°35'8.74\"W","MAR":20.0,"MAY":42.0,"NOV":9.0,"OCT":26.0,"Removed":1475798400000,"SEP":31.0,"Station_ID":"D06","Type":"lite"},"type":"Feature"},{"geometry":{"coordinates":[-121.5376278,37.9433333],"geodesic":true,"type":"Point"},"id":"3","properties":{"APR":44.0,"AUG":54.0,"Crop":"alfalfa","DEC":9.0,"Deployed":1468540800000,"ElevationM":-4.57,"Equipment":"no","FEB":20.0,"IslandName":"Bacon","JAN":8.0,"JUL":64.0,"JUN":55.0,"Latitude":"37°56'36.00\"N","Long_dd":-121.5376278,"Longitude":"121°32'15.46\"W","MAR":35.0,"MAY":43.0,"NOV":14.0,"OCT":31.0,"Removed":null,"SEP":46.0,"Station_ID":"D10","Type":"lite"},"type":"Feature"},{"geometry":{"coordinates":[-121.5384,37.9520639],"geodesic":true,"type":"Point"},"id":"8","properties":{"APR":19.0,"AUG":49.0,"Crop":"maize","DEC":4.0,"Deployed":1468540800000,"ElevationM":-5.49,"Equipment":"no","FEB":9.0,"IslandName":"Bacon","JAN":4.0,"JUL":63.0,"JUN":44.0,"Latitude":"37°57'7.43\"N","Long_dd":-121.5384,"Longitude":"121°32'18.24\"W","MAR":16.0,"MAY":17.0,"NOV":6.0,"OCT":19.0,"Removed":1477440000000,"SEP":23.0,"Station_ID":"D09","Type":"lite"},"type":"Feature"},{"geometry":{"coordinates":[-121.4137472,37.9065278],"geodesic":true,"type":"Point"},"id":"2","properties":{"APR":43.0,"AUG":45.0,"Crop":"alfalfa","DEC":9.0,"Deployed":1468800000000,"ElevationM":0.61,"Equipment":"no","FEB":18.0,"IslandName":"Roberts","JAN":7.0,"JUL":58.0,"JUN":65.0,"Latitude":"37°54'23.50\"N","Long_dd":-121.4137472,"Longitude":"121°24'49.49\"W","MAR":34.0,"MAY":43.0,"NOV":11.0,"OCT":23.0,"Removed":null,"SEP":41.0,"Station_ID":"D13","Type":"full"},"type":"Feature"},{"geometry":{"coordinates":[-121.4847444,37.82795],"geodesic":true,"type":"Point"},"id":"11","properties":{"APR":22.0,"AUG":26.0,"Crop":"maize","DEC":3.0,"Deployed":1461024000000,"ElevationM":-1.52,"Equipment":"no","FEB":11.0,"IslandName":"Union","JAN":3.0,"JUL":46.0,"JUN":63.0,"Latitude":"37°49'40.62\"N","Long_dd":-121.4847444,"Longitude":"121°29'5.08\"W","MAR":13.0,"MAY":46.0,"NOV":5.0,"OCT":8.0,"Removed":1474588800000,"SEP":12.0,"Station_ID":"D01","Type":"lite"},"type":"Feature"},{"geometry":{"coordinates":[-121.2659972,37.7555472],"geodesic":true,"type":"Point"},"id":"15","properties":{"APR":39.0,"AUG":45.0,"Crop":"pasture","DEC":5.0,"Deployed":1465430400000,"ElevationM":6.7,"Equipment":"CIMIS","FEB":13.0,"IslandName":"Ripon","JAN":6.0,"JUL":48.0,"JUN":54.0,"Latitude":"37°45'19.97\"N","Long_dd":-121.2659972,"Longitude":"121°15'57.59\"W","MAR":25.0,"MAY":45.0,"NOV":10.0,"OCT":28.0,"Removed":null,"SEP":39.0,"Station_ID":"D05","Type":"lite"},"type":"Feature"},{"geometry":{"coordinates":[-121.5055694,38.1018028],"geodesic":true,"type":"Point"},"id":"4","properties":{"APR":28.0,"AUG":17.0,"Crop":"alfalfa","DEC":6.0,"Deployed":1468454400000,"ElevationM":-3.35,"Equipment":"no","FEB":19.0,"IslandName":"Bouldin","JAN":9.0,"JUL":17.0,"JUN":23.0,"Latitude":"38°6'6.49\"N","Long_dd":-121.5055694,"Longitude":"121°30'20.05\"W","MAR":33.0,"MAY":17.0,"NOV":8.0,"OCT":23.0,"Removed":null,"SEP":22.0,"Station_ID":"D07","Type":"lite"},"type":"Feature"},{"geometry":{"coordinates":[-121.5160444,38.0987528],"geodesic":true,"type":"Point"},"id":"9","properties":{"APR":43.0,"AUG":72.0,"Crop":"maize","DEC":9.0,"Deployed":1468454400000,"ElevationM":-3.66,"Equipment":"no","FEB":8.0,"IslandName":"Bouldin","JAN":2.0,"JUL":81.0,"JUN":62.0,"Latitude":"38°5'55.51\"N","Long_dd":-121.5160444,"Longitude":"121°30'57.76\"W","MAR":25.0,"MAY":29.0,"NOV":11.0,"OCT":28.0,"Removed":1474848000000,"SEP":38.0,"Station_ID":"D08","Type":"lite"},"type":"Feature"},{"geometry":{"coordinates":[-121.510375,38.1923556],"geodesic":true,"type":"Point"},"id":"13","properties":{"APR":45.0,"AUG":55.0,"Crop":"pasture","DEC":6.0,"Deployed":1464652800000,"ElevationM":-3.35,"Equipment":"CIMIS","FEB":18.0,"IslandName":"Staten","JAN":8.0,"JUL":54.0,"JUN":47.0,"Latitude":"38°11'32.48\"N","Long_dd":-121.510375,"Longitude":"121°30'37.35\"W","MAR":32.0,"MAY":29.0,"NOV":11.0,"OCT":27.0,"Removed":null,"SEP":38.0,"Station_ID":"D03","Type":"lite"},"type":"Feature"},{"geometry":{"coordinates":[-121.5100167,38.186575],"geodesic":true,"type":"Point"},"id":"7","properties":{"APR":17.0,"AUG":38.0,"Crop":"maize","DEC":4.0,"Deployed":1461110400000,"ElevationM":-3.96,"Equipment":"no","FEB":9.0,"IslandName":"Staten","JAN":5.0,"JUL":68.0,"JUN":68.0,"Latitude":"38°11'11.67\"N","Long_dd":-121.5100167,"Longitude":"121°30'36.06\"W","MAR":12.0,"MAY":32.0,"NOV":5.0,"OCT":10.0,"Removed":1474588800000,"SEP":17.0,"Station_ID":"D11","Type":"full"},"type":"Feature"},{"geometry":{"coordinates":[-121.4970944,38.2213944],"geodesic":true,"type":"Point"},"id":"6","properties":{"APR":47.0,"AUG":49.0,"Crop":"alfalfa","DEC":8.0,"Deployed":1461801600000,"ElevationM":-1.22,"Equipment":"no","FEB":19.0,"IslandName":"Staten","JAN":9.0,"JUL":57.0,"JUN":63.0,"Latitude":"38°13'17.02\"N","Long_dd":-121.4970944,"Longitude":"121°29'49.54\"W","MAR":33.0,"MAY":43.0,"NOV":12.0,"OCT":30.0,"Removed":1493164800000,"SEP":41.0,"Station_ID":"D02","Type":"lite"},"type":"Feature"}]}