{"type":"FeatureCollection","features":[{"geometry":{"coordinates":[-121.6592528,38.1161139],"geodesic":true,"type":"Point"},"id":"12","properties":{"APR":37.0,"AUG":32.0,"Crop":"pasture","DEC":4.0,"Deployed":1466121600000,"ElevationM":-1.52,"Equipment":"no but CIMIS does have another pasture station on Twitchell","FEB":16.0,"IslandName":"Twitchell","JAN":8.0,"JUL":35.0,"JUN":35.0,"Latitude":"38° 6'58.01\"N","Long_dd":-121.6592528,"Longitude":"121°39'33.31\"W","MAR":25.0,"MAY":41.0,"NOV":5.0,"OCT":20.0,"Removed":1480636800000,"SEP":24.0,"Station_ID":"D12","Type":"full"},"type":"Feature"},{"geometry":{"coordinates":[-121.6468833,38.1146528],"geodesic":true,"type":"Point"},"id":"5","properties":{"APR":30.0,"AUG":26.0,"Crop":"alfalfa","DEC":4.0,"Deployed":1470787200000,"ElevationM":-3.35,"Equipment":"UC Berkeley EC system","FEB":15.0,"IslandName":"Twitchell","JAN":7.0,"JUL":31.0,"JUN":44.0,"Latitude":"38°6'52.75\"N","Long_dd":-121.6468833,"Longitude":"121°38'48.78\"W","MAR":22.0,"MAY":50.0,"NOV":5.0,"OCT":24.0,"Removed":null,"SEP":25.0,"Station_ID":"D14","Type":"lite"},"type":"Feature"},{"geometry":{"coordinates":[-121.7012806,38.0333722],"geodesic":true,"type":"Point"},"id":"14","properties":{"APR":36.0,"AUG":40.0,"Crop":"pasture","DEC":4.0,"Deployed":1465257600000,"ElevationM":-3.66,"Equipment":"CIMIS","FEB":16.0,"IslandName":"Jersey","JAN":7.0,"JUL":45.0,"JUN":47.0,"Latitude":"38° 2'0.14\"N","Long_dd":-121.7012806,"Longitude":"121°42'4.61\"W","MAR":21.0,"MAY":43.0,"NOV":5.0,"OCT":15.0,"Removed":null,"SEP":29.0,"Station_ID":"D04","Type":"lite"},"type":"Feature"},{"geometry":{"coordinates":[-121.5857611,37.9862389],"geodesic":true,"type":"Point"},"id":"10","properties":{"APR":17.0,"AUG":43.0,"Crop":"maize","DEC":1.0,"Deployed":1468368000000,"ElevationM":-3.66,"Equipment":"no","FEB":10.0,"IslandName":"Holland","JAN":3.0,"JUL":62.0,"JUN":35.0,"Latitude":"37°59'10.46\"N","Long_dd":-121.5857611,"Longitude":"121°35'8.74\"W","MAR":20.0,"MAY":10.0,"NOV":2.0,"OCT":8.0,"Removed":1475798400000,"SEP":20.0,"Station_ID":"D06","Type":"lite"},"type":"Feature"},{"geometry":{"coordinates":[-121.5376278,37.9433333],"geodesic":true,"type":"Point"},"id":"3","properties":{"APR":39.0,"AUG":35.0,"Crop":"alfalfa","DEC":5.0,"Deployed":1468540800000,"ElevationM":-4.57,"Equipment":"no","FEB":20.0,"IslandName":"Bacon","JAN":8.0,"JUL":42.0,"JUN":44.0,"Latitude":"37°56'36.00\"N","Long_dd":-121.5376278,"Longitude":"121°32'15.46\"W","MAR":27.0,"MAY":51.0,"NOV":7.0,"OCT":19.0,"Removed":null,"SEP":27.0,"Station_ID":"D10","Type":"lite"},"type":"Feature"},{"geometry":{"coordinates":[-121.5384,37.9520639],"geodesic":true,"type":"Point"},"id":"8","properties":{"APR":29.0,"AUG":51.0,"Crop":"maize","DEC":8.0,"Deployed":1468540800000,"ElevationM":-5.49,"Equipment":"no","FEB":25.0,"IslandName":"Bacon","JAN":12.0,"JUL":51.0,"JUN":19.0,"Latitude":"37°57'7.43\"N","Long_dd":-121.5384,"Longitude":"121°32'18.24\"W","MAR":29.0,"MAY":19.0,"NOV":9.0,"OCT":22.0,"Removed":1477440000000,"SEP":40.0,"Station_ID":"D09","Type":"lite"},"type":"Feature"},{"geometry":{"coordinates":[-121.4137472,37.9065278],"geodesic":true,"type":"Point"},"id":"2","properties":{"APR":40.0,"AUG":26.0,"Crop":"alfalfa","DEC":6.0,"Deployed":1468800000000,"ElevationM":0.61,"Equipment":"no","FEB":16.0,"IslandName":"Roberts","JAN":7.0,"JUL":35.0,"JUN":38.0,"Latitude":"37°54'23.50\"N","Long_dd":-121.4137472,"Longitude":"121°24'49.49\"W","MAR":23.0,"MAY":48.0,"NOV":6.0,"OCT":11.0,"Removed":null,"SEP":30.0,"Station_ID":"D13","Type":"full"},"type":"Feature"},{"geometry":{"coordinates":[-121.4847444,37.82795],"geodesic":true,"type":"Point"},"id":"11","properties":{"APR":11.0,"AUG":31.0,"Crop":"maize","DEC":1.0,"Deployed":1461024000000,"ElevationM":-1.52,"Equipment":"no","FEB":5.0,"IslandName":"Union","JAN":2.0,"JUL":57.0,"JUN":49.0,"Latitude":"37°49'40.62\"N","Long_dd":-121.4847444,"Longitude":"121°29'5.08\"W","MAR":7.0,"MAY":15.0,"NOV":2.0,"OCT":9.0,"Removed":1474588800000,"SEP":13.0,"Station_ID":"D01","Type":"lite"},"type":"Feature"},{"geometry":{"coordinates":[-121.2659972,37.7555472],"geodesic":true,"type":"Point"},"id":"15","properties":{"APR":38.0,"AUG":39.0,"Crop":"pasture","DEC":6.0,"Deployed":1465430400000,"ElevationM":6.7,"Equipment":"CIMIS","FEB":18.0,"IslandName":"Ripon","JAN":8.0,"JUL":48.0,"JUN":53.0,"Latitude":"37°45'19.97\"N","Long_dd":-121.2659972,"Longitude":"121°15'57.59\"W","MAR":26.0,"MAY":49.0,"NOV":7.0,"OCT":22.0,"Removed":null,"SEP":30.0,"Station_ID":"D05","Type":"lite"},"type":"Feature"},{"geometry":{"coordinates":[-121.5055694,38.1018028],"geodesic":true,"type":"Point"},"id":"4","properties":{"APR":44.0,"AUG":35.0,"Crop":"alfalfa","DEC":5.0,"Deployed":1468454400000,"ElevationM":-3.35,"Equipment":"no","FEB":20.0,"IslandName":"Bouldin","JAN":8.0,"JUL":59.0,"JUN":62.0,"Latitude":"38°6'6.49\"N","Long_dd":-121.5055694,"Longitude":"121°30'20.05\"W","MAR":27.0,"MAY":53.0,"NOV":6.0,"OCT":15.0,"Removed":null,"SEP":38.0,"Station_ID":"D07","Type":"lite"},"type":"Feature"},{"geometry":{"coordinates":[-121.5160444,38.0987528],"geodesic":true,"type":"Point"},"id":"9","properties":{"APR":9.0,"AUG":47.0,"Crop":"maize","DEC":6.0,"Deployed":1468454400000,"ElevationM":-3.66,"Equipment":"no","FEB":17.0,"IslandName":"Bouldin","JAN":9.0,"JUL":46.0,"JUN":9.0,"Latitude":"38°5'55.51\"N","Long_dd":-121.5160444,"Longitude":"121°30'57.76\"W","MAR":8.0,"MAY":7.0,"NOV":1.0,"OCT":10.0,"Removed":1474848000000,"SEP":24.0,"Station_ID":"D08","Type":"lite"},"type":"Feature"},{"geometry":{"coordinates":[-121.510375,38.1923556],"geodesic":true,"type":"Point"},"id":"13","properties":{"APR":45.0,"AUG":40.0,"Crop":"pasture","DEC":4.0,"Deployed":1464652800000,"ElevationM":-3.35,"Equipment":"CIMIS","FEB":19.0,"IslandName":"Staten","JAN":7.0,"JUL":53.0,"JUN":58.0,"Latitude":"38°11'32.48\"N","Long_dd":-121.510375,"Longitude":"121°30'37.35\"W","MAR":29.0,"MAY":55.0,"NOV":5.0,"OCT":19.0,"Removed":null,"SEP":33.0,"Station_ID":"D03","Type":"lite"},"type":"Feature"},{"geometry":{"coordinates":[-121.5100167,38.186575],"geodesic":true,"type":"Point"},"id":"7","properties":{"APR":11.0,"AUG":32.0,"Crop":"maize","DEC":0.0,"Deployed":1461110400000,"ElevationM":-3.96,"Equipment":"no","FEB":6.0,"IslandName":"Staten","JAN":1.0,"JUL":61.0,"JUN":56.0,"Latitude":"38°11'11.67\"N","Long_dd":-121.5100167,"Longitude":"121°30'36.06\"W","MAR":10.0,"MAY":17.0,"NOV":0.0,"OCT":3.0,"Removed":1474588800000,"SEP":12.0,"Station_ID":"D11","Type":"full"},"type":"Feature"},{"geometry":{"coordinates":[-121.4970944,38.2213944],"geodesic":true,"type":"Point"},"id":"6","properties":{"APR":47.0,"AUG":30.0,"Crop":"alfalfa","DEC":4.0,"Deployed":1461801600000,"ElevationM":-1.22,"Equipment":"no","FEB":20.0,"IslandName":"Staten","JAN":8.0,"JUL":34.0,"JUN":38.0,"Latitude":"38°13'17.02\"N","Long_dd":-121.4970944,"Longitude":"121°29'49.54\"W","MAR":29.0,"MAY":48.0,"NOV":7.0,"OCT":28.0,"Removed":1493164800000,"SEP":21.0,"Station_ID":"D02","Type":"lite"},"type":"Feature"}]}